,id,name,lat,lng,category
0,5f8f9590c57a9d60c3873bd0,BNP Paribas (法國巴黎銀行),22.630723,120.312901,Bank
1,4cf878cb4464b60cddbf60f8,中華郵政,22.631008,120.30378,Post Office
2,4d8c4e3b3753548130e54e56,DBS Bank - Siwei Branch (星展銀行 四維分行),22.619663417052138,120.31145516269612,Bank
3,4ff53685e4b07fe945580bec,渣打銀行 Standard Chartered,22.66613107619622,120.3027900539483,Bank
4,5326d626498e93d1cd9bc2df,The Kaohsiung Third Credit Co-Operative (高雄市第三信用合作社),22.620725138272757,120.27156838037851,Credit Union
5,52e8a36c498ed7504d1d236f,Cathay United Bank (國泰世華銀行),22.629817,120.296805,Bank
6,4f06a705e4b09a8a3d175d9a,CTBC中國信託右昌簡易型分行,22.71097552409948,120.29562037279644,Bank
7,522d43f511d2d78969af6a72,CTBC Bank (中國信託商業銀行),22.6276,120.308,Bank
8,559639ec498e9ad791a2a101,Bank of Kaohsiung (高雄銀行),22.620348,120.312674,Bank
9,54dd7c49498ef333fb3e9358,BANK OF TAIWAN (臺灣銀行),22.620809433425435,120.3047724887561,Bank
10,50f6107ce4b02d5a492ef422,CTBC BANK (中國信託),22.64135513700626,120.30280131786729,Bank
11,506e63e2e4b0c90ab46ceab6,CTBC中國信託博愛分行,22.6571293573978,120.30303222799303,Bank
12,51108a3be4b0e4109e74254c,Bank of Kaohsiung (高雄銀行),22.619896,120.323321,Bank
13,5ec4c537601d2500080d70a5,永豐銀行,22.665551,120.306254,Bank
14,4eaf9933b634097eca49e906,台北富邦銀行三民分行,22.640643696044975,120.32673495333725,Bank
15,5b88ce6a3731ee002ce3e338,中國信託屏東分行,22.683088,120.491775,Bank
16,537af366498e81df80bfc879,台新銀行 博愛分行,22.664478671347776,120.30315049887523,Bank
17,5df6f340442f890008cf99e6,聯邦銀行 九如分行,22.64135,120.299094,Bank
18,5684915f498e809a6ea9fffd,Bank of Taiwan Bo Ai.Branch,22.665693,120.30654,Bank
19,4dfd6994227185f38b987f7d,土地銀行建國分行,22.635367111013323,120.31653106212616,Bank
20,5951ca34a0215b045df057d8,兆豐銀行 東高雄分行,22.648376,120.32508,Bank
21,5f3a07e88cf41a0c8a1f586d,元大商業銀行,22.607478,120.307311,Bank
22,56d18898498ec4e1c331cacc,兆豐國際商業銀行 Mega Bank 港都分行,22.628059618713976,120.2921395847466,Bank
23,5a421444bed4834ef287c78b,臺灣中小企業銀行,22.632575,120.30192,Bank
24,4fffd34ae4b0978e42e5ddf0,臺灣銀行 Bank of Taiwan,22.627452843007088,120.28983590554222,Bank
25,52e1f8d1498e4d4c879b7589,Hua Nan Bank (華南銀行),22.623549,120.283582,Bank
26,4f275fa2e4b0dfdabc424054,合作金庫,22.6248272236251,120.31468421198015,Bank
27,4f1a3618e4b01d7c5d58c0ca,臺灣銀行鳯山分行,22.626137,120.357452,Bank
28,53b63026498e06cf1e5cceb6,臺灣銀行,22.665861,120.304746,Bank
29,4f8ce53be4b005ba105d4cd5,彰化銀行博愛分行,22.655953,120.303139,Bank
30,4e7187d28998183ccec86884,第一銀行歸仁分行,22.96694,120.292546,Bank
31,57e0b8b4498e8c74bfcb06aa,Far Eastern Int'l Bank,22.986484,120.218905,Bank
32,4ccb9cfac0378cfac06a8048,玉山銀行東台南分行,22.980941476874417,120.22451626492402,Bank
33,4fee9d19e4b078413a83616e,Bank of Taiwan (臺灣銀行),22.988942557788736,120.20694418382806,Bank
34,4ff5539de4b02b97145baa94,玉山銀行台南分行,22.995286300345956,120.19702792167664,Bank
35,4d304695f9daa1cd135c6450,CTBC中國信託永康分行,23.01006961526066,120.23276610839295,Bank
36,5a6729b0911fc45bf3be68a1,Land Bank of Taiwan | East Tainan (土地銀行 | 東台南),22.976445468227936,120.23594409227371,Bank
37,522e97ff498efa1694a0ba34,Mega International Commercial Bank | East Tainan Branch (兆豐銀行 | 東台南分行),22.985646,120.21847,Bank
38,5d0df396fcc4ec0023cb2bc7,土地銀行,23.011965,120.227358,Bank
39,604b05460dcc547987abec80,土地銀行安平分行,22.987264,120.186727,Bank
40,5fcb420f1a89581924f41be7,歹濫分錢中心,22.989697,120.18467,Bank
41,4ccc035dba0a5481662b3a59,Hua Nan Bank 華南銀行,22.98746129024909,120.22305107486555,Bank
42,565805db498ea8fe54b3aba7,華南銀行南都分行,22.984525,120.218055,Bank
43,58f1fb851f74405e77d942a3,Shanghai Commercial & Savings Bank | Yung Kang (上海商業儲蓄銀行 | 永康分行),22.998758759492215,120.23966431617735,Bank
44,58b7c5c9eef5da0e2a9ef392,台新銀行 永福分行,22.994639,120.201584,Bank
45,5103626be4b0ed5082582242,台灣銀行安平分行,22.993207931518555,120.1957778930664,Bank
46,58d0d4b514fb4178a87ed360,臺灣企銀 | 善化分行,23.132223,120.29332,Bank
47,511af737e4b028482eb1fb31,Citibank Tainan Branch (花旗銀行 台南分行),22.982864216424144,120.30273936630078,Bank
48,4fd0492be4b074df8616c78b,CTBC中國信託鳯山分行,22.621740858892,120.36017274160695,Bank
49,52e86f4d498eb80a4f4d4e9f,臺灣銀行中庄分行,22.652304762223192,120.39134506898165,Bank
50,4f0e88b6e4b0a91e15373fef,兆豐國際商業銀行,22.998855855766966,120.3048682305857,Bank
51,504f420de4b04947aa4b59a4,國泰世華 Cathy United Bank,23.131855530912507,120.29364109039307,Bank
52,588b05b4109dfe38b27c400c,合作金庫屏東分行,22.673508,120.491075,Bank
53,50bc18ede4b0f3f2753c7a8b,萬泰銀行-鳳山分行,22.628319,120.371223,Bank
54,508de055e4b0b2a61734ee26,台灣銀行楠梓分行,22.72992,120.329248,Bank
55,4e9a7ee85503cfce744459b0,第一銀行 First Bank,23.132319244904703,120.29327630996704,Bank
56,58da50318ee560673a2156e4,台北富邦銀行東台南分行,22.97449,120.22306,Bank
57,52ce509d498ecb75e5e58655,Sin-tshī Farmers Union (新市區農會),23.079558208027496,120.29521484885313,Bank
58,5baf1c79c824ae002c4b4a09,國泰世華銀行（屏東分行）,22.675476,120.490006,Bank
59,5c2d7a0f2f97ec0039bf428e,臺灣銀行,22.671065,120.489317,Bank
60,51639170e4b037ac9cd8480d,台灣銀行 台南科學園區分行,23.09890097805218,120.2832344293441,Bank
61,5a1eb037e679bc353c59cacf,京城銀行 | 永康,23.002386178904242,120.2602744102478,Bank
62,54e700c0498e9da2eb62ca76,京城銀行 | King's Town Bank,23.076457977294922,120.29192352294922,Bank
63,5b29cc7a916bc1003962d999,台新銀行鳳山分行,22.626818,120.35235,Bank
64,55e514d1498ef9459a039b40,臺北富邦銀行鳳山分行,22.641033172607422,120.34860229492188,Bank
65,5431f71d498e412e7dc49755,華南銀行 | 新市分行,23.07614,120.291744,Bank
66,59c501b5bd40097ff683da02,King's Town Bank | Rende (京城銀行 | 仁德分行),22.970626902444824,120.2581286430359,Bank
67,504c8fc2e4b0ef19b12e8c41,LANDBANK | Hsinshin 土地銀行 | 新市分行,23.080075,120.295448,Bank
68,590965a860255e0cf793f53d,合作金庫大樹分行,22.691223,120.43379,Bank
69,59f14ad109e28336ad4d62c6,高雄銀行鳳山分行,22.642187,120.35146,Bank
70,4e804e20722ea07b9ccc0215,第一銀行＠新化老街,23.03501,120.30753,Bank
71,50964b1ce4b087ea44367cfb,Citibank (花旗銀行(永福分行)),22.99441593875601,120.20428957083587,Bank
72,4f2b915be4b03d064ad92247,CTBC中國信託台南分行,22.988948289176324,120.20623403780007,Bank
73,516bb093e4b02de8ed1d7715,合庫南永康分行,23.004581451416016,120.23454284667969,Bank
74,57f4bd71cd10f3747a0a5616,china trust bank,23.00159,120.196033,Bank
75,5673878c498ee87f43ae85cb,元大銀行 Yuanta Bank,23.005725,120.218696,Bank
76,5f058f4b58d3a458151eac7c,凱基銀行台南分行,22.997787,120.19981,Bank
77,5a6aa92d1fa763600bad84b3,元大商業銀行台南分行,22.989208,120.18747,Bank
78,50964a2ae4b076702d3bd7db,第一銀行 First Bank,22.997891931974348,120.20373722428427,Bank
79,50fba879e4b053e0090e15b8,彰化銀行 ChangHwa Bank,22.992307970479548,120.20075564033849,Bank
80,507eb4f4e4b0388f2020855c,永豐銀行 Bank SinoPac,23.01617303852382,120.21094322204588,Bank
81,590c67694f0e587e87aa255e,CTBC中國信託中台南分行,22.994104,120.20063,Bank
82,52dca706498e6bdc64189731,玉山銀行仁德分行,22.970328,120.260388,Bank
83,5130138fe4b02e87f57bdf26,CTBC中國信託仁德簡易型分行,22.971042,120.252238,Bank
84,59c502a1a5a315336ac97e18,台灣中小企業銀行 | 仁德分行,22.970694073644616,120.25821447372437,Bank
85,4efa98f4490124bf9c493ef6,彰化銀行樹谷分行,23.10355186462402,120.26216125488281,Bank
86,4ffd1c68e4b0eb5cd0067e22,官田農會,23.212798328320325,120.35120466772567,Bank
87,5523d190498e8e3f8992d465,京城銀行 善化分行 | King's Town Bank Shanhua,23.132526435744705,120.29022932052611,Bank
88,600e37718653f7304a0898a1,台新銀行 屏東分行,22.672794,120.499462,Bank
89,5c9f2203971317002dd66113,陽信銀行,22.673554,120.489416,Bank
90,5b430d96cabcff002ccad297,玉山銀行,22.671287,120.487374,Bank
91,4f2745e4e4b0717a6b407a2f,台灣銀行,22.669558354572406,120.48633543275153,Bank
